__time,/LF/joint_trajectory_controller/joint_trajectory/header/stamp/nanosec,/LF/joint_trajectory_controller/joint_trajectory/header/stamp/sec,/LF/joint_trajectory_controller/joint_trajectory/points[0]/time_from_start/nanosec,/LF/joint_trajectory_controller/joint_trajectory/points[0]/time_from_start/sec,/LF/joint_trajectory_controller/joint_trajectory/points[0]/velocities[0],/LF/joint_trajectory_controller/joint_trajectory/points[0]/velocities[1],/LF/joint_trajectory_controller/joint_trajectory/points[0]/velocities[2],/LF/joint_trajectory_controller/joint_trajectory/points[0]/velocities[3],/LF/joint_trajectory_controller/joint_trajectory/points[0]/velocities[4],/LF/joint_trajectory_controller/joint_trajectory/points[0]/velocities[5],/LF/joint_trajectory_controller/joint_trajectory/points[0]/velocities[6],/LH/joint_trajectory_controller/joint_trajectory/header/stamp/nanosec,/LH/joint_trajectory_controller/joint_trajectory/header/stamp/sec,/LH/joint_trajectory_controller/joint_trajectory/points[0]/time_from_start/nanosec,/LH/joint_trajectory_controller/joint_trajectory/points[0]/time_from_start/sec,/LH/joint_trajectory_controller/joint_trajectory/points[0]/velocities[0],/LH/joint_trajectory_controller/joint_trajectory/points[0]/velocities[1],/LH/joint_trajectory_controller/joint_trajectory/points[0]/velocities[2],/LH/joint_trajectory_controller/joint_trajectory/points[0]/velocities[3],/LH/joint_trajectory_controller/joint_trajectory/points[0]/velocities[4],/LH/joint_trajectory_controller/joint_trajectory/points[0]/velocities[5],/LH/joint_trajectory_controller/joint_trajectory/points[0]/velocities[6],/RF/joint_trajectory_controller/joint_trajectory/header/stamp/nanosec,/RF/joint_trajectory_controller/joint_trajectory/header/stamp/sec,/RF/joint_trajectory_controller/joint_trajectory/points[0]/time_from_start/nanosec,/RF/joint_trajectory_controller/joint_trajectory/points[0]/time_from_start/sec,/RF/joint_trajectory_controller/joint_trajectory/points[0]/velocities[0],/RF/joint_trajectory_controller/joint_trajectory/points[0]/velocities[1],/RF/joint_trajectory_controller/joint_trajectory/points[0]/velocities[2],/RF/joint_trajectory_controller/joint_trajectory/points[0]/velocities[3],/RF/joint_trajectory_controller/joint_trajectory/points[0]/velocities[4],/RF/joint_trajectory_controller/joint_trajectory/points[0]/velocities[5],/RF/joint_trajectory_controller/joint_trajectory/points[0]/velocities[6],/RH/joint_trajectory_controller/joint_trajectory/header/stamp/nanosec,/RH/joint_trajectory_controller/joint_trajectory/header/stamp/sec,/RH/joint_trajectory_controller/joint_trajectory/points[0]/time_from_start/nanosec,/RH/joint_trajectory_controller/joint_trajectory/points[0]/time_from_start/sec,/RH/joint_trajectory_controller/joint_trajectory/points[0]/velocities[0],/RH/joint_trajectory_controller/joint_trajectory/points[0]/velocities[1],/RH/joint_trajectory_controller/joint_trajectory/points[0]/velocities[2],/RH/joint_trajectory_controller/joint_trajectory/points[0]/velocities[3],/RH/joint_trajectory_controller/joint_trajectory/points[0]/velocities[4],/RH/joint_trajectory_controller/joint_trajectory/points[0]/velocities[5],/RH/joint_trajectory_controller/joint_trajectory/points[0]/velocities[6]
1746088877.045207,,,,,,,,,,,,0.000000000,0.000000000,0.000000000,1.000000000,0.000000000,0.000000000,0.000000000,0.000000000,0.000000000,-0.226885738,0.000000000,,,,,,,,,,,,,,,,,,,,,,
1746088877.045575,,,,,,,,,,,,,,,,,,,,,,,0.000000000,0.000000000,0.000000000,1.000000000,0.000000000,0.000000000,0.000000000,0.000000000,0.000000000,0.226885738,0.000000000,,,,,,,,,,,
1746088877.046029,,,,,,,,,,,,,,,,,,,,,,,,,,,,,,,,,,0.000000000,0.000000000,0.000000000,1.000000000,0.000000000,0.000000000,0.000000000,0.000000000,0.000000000,0.226885738,0.000000000
1746088877.046201,0.000000000,0.000000000,0.000000000,1.000000000,0.000000000,0.000000000,0.000000000,0.000000000,0.000000000,-0.226885738,0.000000000,,,,,,,,,,,,,,,,,,,,,,,,,,,,,,,,,
1746088877.094792,,,,,,,,,,,,0.000000000,0.000000000,0.000000000,1.000000000,0.000000000,0.000000000,0.000000000,0.000000000,0.000000000,-0.324393809,0.000000000,,,,,,,,,,,,,,,,,,,,,,
1746088877.095209,,,,,,,,,,,,,,,,,,,,,,,,,,,,,,,,,,0.000000000,0.000000000,0.000000000,1.000000000,0.000000000,0.000000000,0.000000000,0.000000000,0.000000000,0.324393809,0.000000000
1746088877.095242,,,,,,,,,,,,,,,,,,,,,,,0.000000000,0.000000000,0.000000000,1.000000000,0.000000000,0.000000000,0.000000000,0.000000000,0.000000000,0.324393809,0.000000000,,,,,,,,,,,
1746088877.096033,0.000000000,0.000000000,0.000000000,1.000000000,0.000000000,0.000000000,0.000000000,0.000000000,0.000000000,-0.324393809,0.000000000,,,,,,,,,,,,,,,,,,,,,,,,,,,,,,,,,
1746088877.144533,0.000000000,0.000000000,0.000000000,1.000000000,0.000000000,0.000000000,0.000000000,0.000000000,0.000000000,-0.519409907,0.000000000,,,,,,,,,,,,,,,,,,,,,,,,,,,,,,,,,
1746088877.144624,,,,,,,,,,,,,,,,,,,,,,,,,,,,,,,,,,0.000000000,0.000000000,0.000000000,1.000000000,0.000000000,0.000000000,0.000000000,0.000000000,0.000000000,0.519409907,0.000000000
1746088877.144674,,,,,,,,,,,,,,,,,,,,,,,0.000000000,0.000000000,0.000000000,1.000000000,0.000000000,0.000000000,0.000000000,0.000000000,0.000000000,0.519409907,0.000000000,,,,,,,,,,,
1746088877.144819,,,,,,,,,,,,0.000000000,0.000000000,0.000000000,1.000000000,0.000000000,0.000000000,0.000000000,0.000000000,0.000000000,-0.519409907,0.000000000,,,,,,,,,,,,,,,,,,,,,,
1746088877.195120,0.000000000,0.000000000,0.000000000,1.000000000,0.000000000,0.000000000,0.000000000,0.000000000,0.000000000,-0.616917978,0.000000000,,,,,,,,,,,,,,,,,,,,,,,,,,,,,,,,,
1746088877.195372,,,,,,,,,,,,,,,,,,,,,,,,,,,,,,,,,,0.000000000,0.000000000,0.000000000,1.000000000,0.000000000,0.000000000,0.000000000,0.000000000,0.000000000,0.616917978,0.000000000
1746088877.195619,,,,,,,,,,,,0.000000000,0.000000000,0.000000000,1.000000000,0.000000000,0.000000000,0.000000000,0.000000000,0.000000000,-0.616917978,0.000000000,,,,,,,,,,,,,,,,,,,,,,
1746088877.195674,,,,,,,,,,,,,,,,,,,,,,,0.000000000,0.000000000,0.000000000,1.000000000,0.000000000,0.000000000,0.000000000,0.000000000,0.000000000,0.616917978,0.000000000,,,,,,,,,,,
1746088877.244202,,,,,,,,,,,,,,,,,,,,,,,,,,,,,,,,,,0.000000000,0.000000000,0.000000000,1.000000000,0.000000000,0.000000000,0.000000000,0.000000000,0.000000000,0.860688090,0.000000000
1746088877.244426,,,,,,,,,,,,0.000000000,0.000000000,0.000000000,1.000000000,0.000000000,0.000000000,0.000000000,0.000000000,0.000000000,-0.860688090,0.000000000,,,,,,,,,,,,,,,,,,,,,,
1746088877.244496,0.000000000,0.000000000,0.000000000,1.000000000,0.000000000,0.000000000,0.000000000,0.000000000,0.000000000,-0.860688090,0.000000000,,,,,,,,,,,,,,,,,,,,,,,,,,,,,,,,,
1746088877.244549,,,,,,,,,,,,,,,,,,,,,,,0.000000000,0.000000000,0.000000000,1.000000000,0.000000000,0.000000000,0.000000000,0.000000000,0.000000000,0.860688090,0.000000000,,,,,,,,,,,
1746088877.294609,0.000000000,0.000000000,0.000000000,1.000000000,0.000000000,0.000000000,0.000000000,0.000000000,0.000000000,-1.006950175,0.000000000,,,,,,,,,,,,,,,,,,,,,,,,,,,,,,,,,
1746088877.294660,,,,,,,,,,,,,,,,,,,,,,,,,,,,,,,,,,0.000000000,0.000000000,0.000000000,1.000000000,0.000000000,0.000000000,0.000000000,0.000000000,0.000000000,1.006950175,0.000000000
1746088877.295131,,,,,,,,,,,,0.000000000,0.000000000,0.000000000,1.000000000,0.000000000,0.000000000,0.000000000,0.000000000,0.000000000,-1.006950175,0.000000000,,,,,,,,,,,,,,,,,,,,,,
1746088877.295918,,,,,,,,,,,,,,,,,,,,,,,0.000000000,0.000000000,0.000000000,1.000000000,0.000000000,0.000000000,0.000000000,0.000000000,0.000000000,1.006950175,0.000000000,,,,,,,,,,,
1746088877.345294,,,,,,,,,,,,,,,,,,,,,,,,,,,,,,,,,,0.000000000,0.000000000,0.000000000,1.000000000,0.000000000,0.000000000,0.000000000,0.000000000,0.000000000,1.006950175,0.000000000
1746088877.345316,,,,,,,,,,,,,,,,,,,,,,,0.000000000,0.000000000,0.000000000,1.000000000,0.000000000,0.000000000,0.000000000,0.000000000,0.000000000,1.006950175,0.000000000,,,,,,,,,,,
1746088877.345712,,,,,,,,,,,,0.000000000,0.000000000,0.000000000,1.000000000,0.000000000,0.000000000,0.000000000,0.000000000,0.000000000,-1.006950175,0.000000000,,,,,,,,,,,,,,,,,,,,,,
1746088877.345809,0.000000000,0.000000000,0.000000000,1.000000000,0.000000000,0.000000000,0.000000000,0.000000000,0.000000000,-1.006950175,0.000000000,,,,,,,,,,,,,,,,,,,,,,,,,,,,,,,,,
1746088877.395513,0.000000000,0.000000000,0.000000000,1.000000000,0.000000000,0.000000000,0.000000000,0.000000000,0.000000000,-1.006950175,0.000000000,,,,,,,,,,,,,,,,,,,,,,,,,,,,,,,,,
1746088877.395554,,,,,,,,,,,,,,,,,,,,,,,,,,,,,,,,,,0.000000000,0.000000000,0.000000000,1.000000000,0.000000000,0.000000000,0.000000000,0.000000000,0.000000000,1.006950175,0.000000000
1746088877.395568,,,,,,,,,,,,,,,,,,,,,,,0.000000000,0.000000000,0.000000000,1.000000000,0.000000000,0.000000000,0.000000000,0.000000000,0.000000000,1.006950175,0.000000000,,,,,,,,,,,
1746088877.396665,,,,,,,,,,,,0.000000000,0.000000000,0.000000000,1.000000000,0.000000000,0.000000000,0.000000000,0.000000000,0.000000000,-1.006950175,0.000000000,,,,,,,,,,,,,,,,,,,,,,
1746088877.445365,,,,,,,,,,,,,,,,,,,,,,,0.000000000,0.000000000,0.000000000,1.000000000,0.000000000,0.000000000,0.000000000,0.000000000,0.000000000,1.250720287,0.000000000,,,,,,,,,,,
1746088877.445788,,,,,,,,,,,,0.000000000,0.000000000,0.000000000,1.000000000,0.000000000,0.000000000,0.000000000,0.000000000,0.000000000,-1.250720287,0.000000000,,,,,,,,,,,,,,,,,,,,,,
1746088877.446138,0.000000000,0.000000000,0.000000000,1.000000000,0.000000000,0.000000000,0.000000000,0.000000000,0.000000000,-1.250720287,0.000000000,,,,,,,,,,,,,,,,,,,,,,,,,,,,,,,,,
1746088877.446206,,,,,,,,,,,,,,,,,,,,,,,,,,,,,,,,,,0.000000000,0.000000000,0.000000000,1.000000000,0.000000000,0.000000000,0.000000000,0.000000000,0.000000000,1.250720287,0.000000000
1746088877.495004,0.000000000,0.000000000,0.000000000,1.000000000,0.000000000,0.000000000,0.000000000,0.000000000,0.000000000,-1.250720287,0.000000000,,,,,,,,,,,,,,,,,,,,,,,,,,,,,,,,,
1746088877.495538,,,,,,,,,,,,0.000000000,0.000000000,0.000000000,1.000000000,0.000000000,0.000000000,0.000000000,0.000000000,0.000000000,-1.250720287,0.000000000,,,,,,,,,,,,,,,,,,,,,,
1746088877.495569,,,,,,,,,,,,,,,,,,,,,,,,,,,,,,,,,,0.000000000,0.000000000,0.000000000,1.000000000,0.000000000,0.000000000,0.000000000,0.000000000,0.000000000,1.250720287,0.000000000
1746088877.495971,,,,,,,,,,,,,,,,,,,,,,,0.000000000,0.000000000,0.000000000,1.000000000,0.000000000,0.000000000,0.000000000,0.000000000,0.000000000,1.250720287,0.000000000,,,,,,,,,,,
1746088877.545135,,,,,,,,,,,,,,,,,,,,,,,,,,,,,,,,,,0.000000000,0.000000000,0.000000000,1.000000000,0.000000000,0.000000000,0.000000000,0.000000000,0.000000000,1.250720287,0.000000000
1746088877.545171,,,,,,,,,,,,,,,,,,,,,,,0.000000000,0.000000000,0.000000000,1.000000000,0.000000000,0.000000000,0.000000000,0.000000000,0.000000000,1.250720287,0.000000000,,,,,,,,,,,
1746088877.545220,,,,,,,,,,,,0.000000000,0.000000000,0.000000000,1.000000000,0.000000000,0.000000000,0.000000000,0.000000000,0.000000000,-1.250720287,0.000000000,,,,,,,,,,,,,,,,,,,,,,
1746088877.545231,0.000000000,0.000000000,0.000000000,1.000000000,0.000000000,0.000000000,0.000000000,0.000000000,0.000000000,-1.250720287,0.000000000,,,,,,,,,,,,,,,,,,,,,,,,,,,,,,,,,
1746088877.595176,,,,,,,,,,,,0.000000000,0.000000000,0.000000000,1.000000000,0.000000000,0.000000000,0.000000000,0.000000000,0.000000000,-1.250720287,0.000000000,,,,,,,,,,,,,,,,,,,,,,
1746088877.595204,,,,,,,,,,,,,,,,,,,,,,,0.000000000,0.000000000,0.000000000,1.000000000,0.000000000,0.000000000,0.000000000,0.000000000,0.000000000,1.250720287,0.000000000,,,,,,,,,,,
1746088877.595241,,,,,,,,,,,,,,,,,,,,,,,,,,,,,,,,,,0.000000000,0.000000000,0.000000000,1.000000000,0.000000000,0.000000000,0.000000000,0.000000000,0.000000000,1.250720287,0.000000000
1746088877.595544,0.000000000,0.000000000,0.000000000,1.000000000,0.000000000,0.000000000,0.000000000,0.000000000,0.000000000,-1.250720287,0.000000000,,,,,,,,,,,,,,,,,,,,,,,,,,,,,,,,,
1746088877.645038,,,,,,,,,,,,0.000000000,0.000000000,0.000000000,1.000000000,0.000000000,0.000000000,0.000000000,0.000000000,0.000000000,-1.250720287,0.000000000,,,,,,,,,,,,,,,,,,,,,,
1746088877.645358,,,,,,,,,,,,,,,,,,,,,,,,,,,,,,,,,,0.000000000,0.000000000,0.000000000,1.000000000,0.000000000,0.000000000,0.000000000,0.000000000,0.000000000,1.250720287,0.000000000
1746088877.645572,0.000000000,0.000000000,0.000000000,1.000000000,0.000000000,0.000000000,0.000000000,0.000000000,0.000000000,-1.250720287,0.000000000,,,,,,,,,,,,,,,,,,,,,,,,,,,,,,,,,
1746088877.646453,,,,,,,,,,,,,,,,,,,,,,,0.000000000,0.000000000,0.000000000,1.000000000,0.000000000,0.000000000,0.000000000,0.000000000,0.000000000,1.250720287,0.000000000,,,,,,,,,,,
1746088877.695263,,,,,,,,,,,,0.000000000,0.000000000,0.000000000,1.000000000,0.000000000,0.000000000,0.000000000,0.000000000,0.000000000,-1.250720287,0.000000000,,,,,,,,,,,,,,,,,,,,,,
1746088877.695377,0.000000000,0.000000000,0.000000000,1.000000000,0.000000000,0.000000000,0.000000000,0.000000000,0.000000000,-1.250720287,0.000000000,,,,,,,,,,,,,,,,,,,,,,,,,,,,,,,,,
1746088877.696046,,,,,,,,,,,,,,,,,,,,,,,,,,,,,,,,,,0.000000000,0.000000000,0.000000000,1.000000000,0.000000000,0.000000000,0.000000000,0.000000000,0.000000000,1.250720287,0.000000000
1746088877.696247,,,,,,,,,,,,,,,,,,,,,,,0.000000000,0.000000000,0.000000000,1.000000000,0.000000000,0.000000000,0.000000000,0.000000000,0.000000000,1.250720287,0.000000000,,,,,,,,,,,
1746088877.744150,0.000000000,0.000000000,0.000000000,1.000000000,0.000000000,0.000000000,0.000000000,0.000000000,0.000000000,-1.250720287,0.000000000,,,,,,,,,,,,,,,,,,,,,,,,,,,,,,,,,
1746088877.744374,,,,,,,,,,,,,,,,,,,,,,,0.000000000,0.000000000,0.000000000,1.000000000,0.000000000,0.000000000,0.000000000,0.000000000,0.000000000,1.250720287,0.000000000,,,,,,,,,,,
1746088877.744850,,,,,,,,,,,,,,,,,,,,,,,,,,,,,,,,,,0.000000000,0.000000000,0.000000000,1.000000000,0.000000000,0.000000000,0.000000000,0.000000000,0.000000000,1.250720287,0.000000000
1746088877.745517,,,,,,,,,,,,0.000000000,0.000000000,0.000000000,1.000000000,0.000000000,0.000000000,0.000000000,0.000000000,0.000000000,-1.250720287,0.000000000,,,,,,,,,,,,,,,,,,,,,,
1746088877.795142,0.000000000,0.000000000,0.000000000,1.000000000,0.000000000,0.000000000,0.000000000,0.000000000,0.000000000,-1.250720287,0.000000000,,,,,,,,,,,,,,,,,,,,,,,,,,,,,,,,,
1746088877.795257,,,,,,,,,,,,0.000000000,0.000000000,0.000000000,1.000000000,0.000000000,0.000000000,0.000000000,0.000000000,0.000000000,-1.250720287,0.000000000,,,,,,,,,,,,,,,,,,,,,,
1746088877.795270,,,,,,,,,,,,,,,,,,,,,,,,,,,,,,,,,,0.000000000,0.000000000,0.000000000,1.000000000,0.000000000,0.000000000,0.000000000,0.000000000,0.000000000,1.250720287,0.000000000
1746088877.795974,,,,,,,,,,,,,,,,,,,,,,,0.000000000,0.000000000,0.000000000,1.000000000,0.000000000,0.000000000,0.000000000,0.000000000,0.000000000,1.250720287,0.000000000,,,,,,,,,,,
1746088877.845034,0.000000000,0.000000000,0.000000000,1.000000000,0.000000000,0.000000000,0.000000000,0.000000000,0.000000000,-1.201966317,0.000000000,,,,,,,,,,,,,,,,,,,,,,,,,,,,,,,,,
1746088877.845062,,,,,,,,,,,,,,,,,,,,,,,,,,,,,,,,,,0.000000000,0.000000000,0.000000000,1.000000000,0.000000000,0.000000000,0.000000000,0.000000000,0.000000000,1.201966317,0.000000000
1746088877.845213,,,,,,,,,,,,0.000000000,0.000000000,0.000000000,1.000000000,0.000000000,0.000000000,0.000000000,0.000000000,0.000000000,-1.201966317,0.000000000,,,,,,,,,,,,,,,,,,,,,,
1746088877.845540,,,,,,,,,,,,,,,,,,,,,,,0.000000000,0.000000000,0.000000000,1.000000000,0.000000000,0.000000000,0.000000000,0.000000000,0.000000000,1.201966317,0.000000000,,,,,,,,,,,
1746088877.893769,0.000000000,0.000000000,0.000000000,1.000000000,0.000000000,0.000000000,0.000000000,0.000000000,0.000000000,-1.201966317,0.000000000,,,,,,,,,,,,,,,,,,,,,,,,,,,,,,,,,
1746088877.893794,,,,,,,,,,,,,,,,,,,,,,,,,,,,,,,,,,0.000000000,0.000000000,0.000000000,1.000000000,0.000000000,0.000000000,0.000000000,0.000000000,0.000000000,1.201966317,0.000000000
1746088877.893826,,,,,,,,,,,,,,,,,,,,,,,0.000000000,0.000000000,0.000000000,1.000000000,0.000000000,0.000000000,0.000000000,0.000000000,0.000000000,1.201966317,0.000000000,,,,,,,,,,,
1746088877.894208,,,,,,,,,,,,0.000000000,0.000000000,0.000000000,1.000000000,0.000000000,0.000000000,0.000000000,0.000000000,0.000000000,-1.201966317,0.000000000,,,,,,,,,,,,,,,,,,,,,,
1746088877.945662,,,,,,,,,,,,0.000000000,0.000000000,0.000000000,1.000000000,0.000000000,0.000000000,0.000000000,0.000000000,0.000000000,-1.201966317,0.000000000,,,,,,,,,,,,,,,,,,,,,,
1746088877.945898,0.000000000,0.000000000,0.000000000,1.000000000,0.000000000,0.000000000,0.000000000,0.000000000,0.000000000,-1.201966317,0.000000000,,,,,,,,,,,,,,,,,,,,,,,,,,,,,,,,,
1746088877.946027,,,,,,,,,,,,,,,,,,,,,,,,,,,,,,,,,,0.000000000,0.000000000,0.000000000,1.000000000,0.000000000,0.000000000,0.000000000,0.000000000,0.000000000,1.201966317,0.000000000
1746088877.946735,,,,,,,,,,,,,,,,,,,,,,,0.000000000,0.000000000,0.000000000,1.000000000,0.000000000,0.000000000,0.000000000,0.000000000,0.000000000,1.201966317,0.000000000,,,,,,,,,,,
1746088877.995157,,,,,,,,,,,,,,,,,,,,,,,,,,,,,,,,,,0.000000000,0.000000000,0.000000000,1.000000000,0.000000000,0.000000000,0.000000000,0.000000000,0.000000000,1.201966317,0.000000000
1746088877.995534,0.000000000,0.000000000,0.000000000,1.000000000,0.000000000,0.000000000,0.000000000,0.000000000,0.000000000,-1.201966317,0.000000000,,,,,,,,,,,,,,,,,,,,,,,,,,,,,,,,,
1746088877.995718,,,,,,,,,,,,0.000000000,0.000000000,0.000000000,1.000000000,0.000000000,0.000000000,0.000000000,0.000000000,0.000000000,-1.201966317,0.000000000,,,,,,,,,,,,,,,,,,,,,,
1746088877.996007,,,,,,,,,,,,,,,,,,,,,,,0.000000000,0.000000000,0.000000000,1.000000000,0.000000000,0.000000000,0.000000000,0.000000000,0.000000000,1.201966317,0.000000000,,,,,,,,,,,
1746088878.044445,,,,,,,,,,,,,,,,,,,,,,,0.000000000,0.000000000,0.000000000,1.000000000,0.000000000,0.000000000,0.000000000,0.000000000,0.000000000,1.153212260,0.000000000,,,,,,,,,,,
1746088878.044626,,,,,,,,,,,,0.000000000,0.000000000,0.000000000,1.000000000,0.000000000,0.000000000,0.000000000,0.000000000,0.000000000,-1.153212260,0.000000000,,,,,,,,,,,,,,,,,,,,,,
1746088878.044759,0.000000000,0.000000000,0.000000000,1.000000000,0.000000000,0.000000000,0.000000000,0.000000000,0.000000000,-1.153212260,0.000000000,,,,,,,,,,,,,,,,,,,,,,,,,,,,,,,,,
1746088878.044873,,,,,,,,,,,,,,,,,,,,,,,,,,,,,,,,,,0.000000000,0.000000000,0.000000000,1.000000000,0.000000000,0.000000000,0.000000000,0.000000000,0.000000000,1.153212260,0.000000000
1746088878.095054,0.000000000,0.000000000,0.000000000,1.000000000,0.000000000,0.000000000,0.000000000,0.000000000,0.000000000,-1.153212260,0.000000000,,,,,,,,,,,,,,,,,,,,,,,,,,,,,,,,,
1746088878.095119,,,,,,,,,,,,,,,,,,,,,,,0.000000000,0.000000000,0.000000000,1.000000000,0.000000000,0.000000000,0.000000000,0.000000000,0.000000000,1.153212260,0.000000000,,,,,,,,,,,
1746088878.095256,,,,,,,,,,,,,,,,,,,,,,,,,,,,,,,,,,0.000000000,0.000000000,0.000000000,1.000000000,0.000000000,0.000000000,0.000000000,0.000000000,0.000000000,1.153212260,0.000000000
1746088878.095561,,,,,,,,,,,,0.000000000,0.000000000,0.000000000,1.000000000,0.000000000,0.000000000,0.000000000,0.000000000,0.000000000,-1.153212260,0.000000000,,,,,,,,,,,,,,,,,,,,,,
1746088878.145673,,,,,,,,,,,,0.000000000,0.000000000,0.000000000,1.000000000,0.000000000,0.000000000,0.000000000,0.000000000,0.000000000,-1.153212260,0.000000000,,,,,,,,,,,,,,,,,,,,,,
1746088878.145764,0.000000000,0.000000000,0.000000000,1.000000000,0.000000000,0.000000000,0.000000000,0.000000000,0.000000000,-1.153212260,0.000000000,,,,,,,,,,,,,,,,,,,,,,,,,,,,,,,,,
1746088878.145812,,,,,,,,,,,,,,,,,,,,,,,,,,,,,,,,,,0.000000000,0.000000000,0.000000000,1.000000000,0.000000000,0.000000000,0.000000000,0.000000000,0.000000000,1.153212260,0.000000000
1746088878.146059,,,,,,,,,,,,,,,,,,,,,,,0.000000000,0.000000000,0.000000000,1.000000000,0.000000000,0.000000000,0.000000000,0.000000000,0.000000000,1.153212260,0.000000000,,,,,,,,,,,
1746088878.195296,,,,,,,,,,,,0.000000000,0.000000000,0.000000000,1.000000000,0.000000000,0.000000000,0.000000000,0.000000000,0.000000000,-1.104458202,0.000000000,,,,,,,,,,,,,,,,,,,,,,
1746088878.195336,0.000000000,0.000000000,0.000000000,1.000000000,0.000000000,0.000000000,0.000000000,0.000000000,0.000000000,-1.104458202,0.000000000,,,,,,,,,,,,,,,,,,,,,,,,,,,,,,,,,
1746088878.195720,,,,,,,,,,,,,,,,,,,,,,,0.000000000,0.000000000,0.000000000,1.000000000,0.000000000,0.000000000,0.000000000,0.000000000,0.000000000,1.104458202,0.000000000,,,,,,,,,,,
1746088878.196130,,,,,,,,,,,,,,,,,,,,,,,,,,,,,,,,,,0.000000000,0.000000000,0.000000000,1.000000000,0.000000000,0.000000000,0.000000000,0.000000000,0.000000000,1.104458202,0.000000000
1746088878.245321,,,,,,,,,,,,0.000000000,0.000000000,0.000000000,1.000000000,0.000000000,0.000000000,0.000000000,0.000000000,0.000000000,-1.055704233,0.000000000,,,,,,,,,,,,,,,,,,,,,,
1746088878.245373,,,,,,,,,,,,,,,,,,,,,,,,,,,,,,,,,,0.000000000,0.000000000,0.000000000,1.000000000,0.000000000,0.000000000,0.000000000,0.000000000,0.000000000,1.055704233,0.000000000
1746088878.245566,0.000000000,0.000000000,0.000000000,1.000000000,0.000000000,0.000000000,0.000000000,0.000000000,0.000000000,-1.055704233,0.000000000,,,,,,,,,,,,,,,,,,,,,,,,,,,,,,,,,
1746088878.246001,,,,,,,,,,,,,,,,,,,,,,,0.000000000,0.000000000,0.000000000,1.000000000,0.000000000,0.000000000,0.000000000,0.000000000,0.000000000,1.055704233,0.000000000,,,,,,,,,,,
1746088878.295910,,,,,,,,,,,,0.000000000,0.000000000,0.000000000,1.000000000,0.000000000,0.000000000,0.000000000,0.000000000,0.000000000,-0.958196205,0.000000000,,,,,,,,,,,,,,,,,,,,,,
1746088878.295958,,,,,,,,,,,,,,,,,,,,,,,,,,,,,,,,,,0.000000000,0.000000000,0.000000000,1.000000000,0.000000000,0.000000000,0.000000000,0.000000000,0.000000000,0.958196205,0.000000000
1746088878.296287,0.000000000,0.000000000,0.000000000,1.000000000,0.000000000,0.000000000,0.000000000,0.000000000,0.000000000,-0.958196205,0.000000000,,,,,,,,,,,,,,,,,,,,,,,,,,,,,,,,,
1746088878.296363,,,,,,,,,,,,,,,,,,,,,,,0.000000000,0.000000000,0.000000000,1.000000000,0.000000000,0.000000000,0.000000000,0.000000000,0.000000000,0.958196205,0.000000000,,,,,,,,,,,
1746088878.346458,,,,,,,,,,,,,,,,,,,,,,,,,,,,,,,,,,0.000000000,0.000000000,0.000000000,1.000000000,0.000000000,0.000000000,0.000000000,0.000000000,0.000000000,0.909442148,0.000000000
1746088878.346782,,,,,,,,,,,,0.000000000,0.000000000,0.000000000,1.000000000,0.000000000,0.000000000,0.000000000,0.000000000,0.000000000,-0.909442148,0.000000000,,,,,,,,,,,,,,,,,,,,,,
1746088878.346815,0.000000000,0.000000000,0.000000000,1.000000000,0.000000000,0.000000000,0.000000000,0.000000000,0.000000000,-0.909442148,0.000000000,,,,,,,,,,,,,,,,,,,,,,,,,,,,,,,,,
1746088878.346965,,,,,,,,,,,,,,,,,,,,,,,0.000000000,0.000000000,0.000000000,1.000000000,0.000000000,0.000000000,0.000000000,0.000000000,0.000000000,0.909442148,0.000000000,,,,,,,,,,,
1746088878.395358,,,,,,,,,,,,,,,,,,,,,,,,,,,,,,,,,,0.000000000,0.000000000,0.000000000,1.000000000,0.000000000,0.000000000,0.000000000,0.000000000,0.000000000,0.763180063,0.000000000
1746088878.395621,,,,,,,,,,,,,,,,,,,,,,,0.000000000,0.000000000,0.000000000,1.000000000,0.000000000,0.000000000,0.000000000,0.000000000,0.000000000,0.763180063,0.000000000,,,,,,,,,,,
1746088878.395791,,,,,,,,,,,,0.000000000,0.000000000,0.000000000,1.000000000,0.000000000,0.000000000,0.000000000,0.000000000,0.000000000,-0.763180063,0.000000000,,,,,,,,,,,,,,,,,,,,,,
1746088878.396203,0.000000000,0.000000000,0.000000000,1.000000000,0.000000000,0.000000000,0.000000000,0.000000000,0.000000000,-0.763180063,0.000000000,,,,,,,,,,,,,,,,,,,,,,,,,,,,,,,,,
1746088878.445263,,,,,,,,,,,,0.000000000,0.000000000,0.000000000,1.000000000,0.000000000,0.000000000,0.000000000,0.000000000,0.000000000,-0.763180063,0.000000000,,,,,,,,,,,,,,,,,,,,,,
1746088878.445517,0.000000000,0.000000000,0.000000000,1.000000000,0.000000000,0.000000000,0.000000000,0.000000000,0.000000000,-0.763180063,0.000000000,,,,,,,,,,,,,,,,,,,,,,,,,,,,,,,,,
1746088878.445571,,,,,,,,,,,,,,,,,,,,,,,,,,,,,,,,,,0.000000000,0.000000000,0.000000000,1.000000000,0.000000000,0.000000000,0.000000000,0.000000000,0.000000000,0.763180063,0.000000000
1746088878.445992,,,,,,,,,,,,,,,,,,,,,,,0.000000000,0.000000000,0.000000000,1.000000000,0.000000000,0.000000000,0.000000000,0.000000000,0.000000000,0.763180063,0.000000000,,,,,,,,,,,
1746088878.495187,,,,,,,,,,,,,,,,,,,,,,,,,,,,,,,,,,0.000000000,0.000000000,0.000000000,1.000000000,0.000000000,0.000000000,0.000000000,0.000000000,0.000000000,0.763180063,0.000000000
1746088878.495750,0.000000000,0.000000000,0.000000000,1.000000000,0.000000000,0.000000000,0.000000000,0.000000000,0.000000000,-0.763180063,0.000000000,,,,,,,,,,,,,,,,,,,,,,,,,,,,,,,,,
1746088878.495923,,,,,,,,,,,,0.000000000,0.000000000,0.000000000,1.000000000,0.000000000,0.000000000,0.000000000,0.000000000,0.000000000,-0.763180063,0.000000000,,,,,,,,,,,,,,,,,,,,,,
1746088878.496628,,,,,,,,,,,,,,,,,,,,,,,0.000000000,0.000000000,0.000000000,1.000000000,0.000000000,0.000000000,0.000000000,0.000000000,0.000000000,0.763180063,0.000000000,,,,,,,,,,,
1746088878.544170,,,,,,,,,,,,,,,,,,,,,,,,,,,,,,,,,,0.000000000,0.000000000,0.000000000,1.000000000,0.000000000,0.000000000,0.000000000,0.000000000,0.000000000,0.665671992,0.000000000
1746088878.544630,,,,,,,,,,,,0.000000000,0.000000000,0.000000000,1.000000000,0.000000000,0.000000000,0.000000000,0.000000000,0.000000000,-0.665671992,0.000000000,,,,,,,,,,,,,,,,,,,,,,
1746088878.544648,0.000000000,0.000000000,0.000000000,1.000000000,0.000000000,0.000000000,0.000000000,0.000000000,0.000000000,-0.665671992,0.000000000,,,,,,,,,,,,,,,,,,,,,,,,,,,,,,,,,
1746088878.544657,,,,,,,,,,,,,,,,,,,,,,,0.000000000,0.000000000,0.000000000,1.000000000,0.000000000,0.000000000,0.000000000,0.000000000,0.000000000,0.665671992,0.000000000,,,,,,,,,,,
1746088878.595324,0.000000000,0.000000000,0.000000000,1.000000000,0.000000000,0.000000000,0.000000000,0.000000000,0.000000000,-0.470655894,0.000000000,,,,,,,,,,,,,,,,,,,,,,,,,,,,,,,,,
1746088878.595358,,,,,,,,,,,,,,,,,,,,,,,0.000000000,0.000000000,0.000000000,1.000000000,0.000000000,0.000000000,0.000000000,0.000000000,0.000000000,0.470655894,0.000000000,,,,,,,,,,,
1746088878.596039,,,,,,,,,,,,0.000000000,0.000000000,0.000000000,1.000000000,0.000000000,0.000000000,0.000000000,0.000000000,0.000000000,-0.470655894,0.000000000,,,,,,,,,,,,,,,,,,,,,,
1746088878.597167,,,,,,,,,,,,,,,,,,,,,,,,,,,,,,,,,,0.000000000,0.000000000,0.000000000,1.000000000,0.000000000,0.000000000,0.000000000,0.000000000,0.000000000,0.470655894,0.000000000
1746088878.645394,,,,,,,,,,,,0.000000000,0.000000000,0.000000000,1.000000000,0.000000000,0.000000000,0.000000000,0.000000000,0.000000000,-0.275639773,0.000000000,,,,,,,,,,,,,,,,,,,,,,
1746088878.645550,0.000000000,0.000000000,0.000000000,1.000000000,0.000000000,0.000000000,0.000000000,0.000000000,0.000000000,-0.275639773,0.000000000,,,,,,,,,,,,,,,,,,,,,,,,,,,,,,,,,
1746088878.645597,,,,,,,,,,,,,,,,,,,,,,,,,,,,,,,,,,0.000000000,0.000000000,0.000000000,1.000000000,0.000000000,0.000000000,0.000000000,0.000000000,0.000000000,0.275639773,0.000000000
1746088878.645639,,,,,,,,,,,,,,,,,,,,,,,0.000000000,0.000000000,0.000000000,1.000000000,0.000000000,0.000000000,0.000000000,0.000000000,0.000000000,0.275639773,0.000000000,,,,,,,,,,,
1746088878.694652,,,,,,,,,,,,0.000000000,0.000000000,0.000000000,1.000000000,0.000000000,0.000000000,0.000000000,0.000000000,0.000000000,-0.275639773,0.000000000,,,,,,,,,,,,,,,,,,,,,,
1746088878.694765,,,,,,,,,,,,,,,,,,,,,,,0.000000000,0.000000000,0.000000000,1.000000000,0.000000000,0.000000000,0.000000000,0.000000000,0.000000000,0.275639773,0.000000000,,,,,,,,,,,
1746088878.695800,0.000000000,0.000000000,0.000000000,1.000000000,0.000000000,0.000000000,0.000000000,0.000000000,0.000000000,-0.275639773,0.000000000,,,,,,,,,,,,,,,,,,,,,,,,,,,,,,,,,
1746088878.695893,,,,,,,,,,,,,,,,,,,,,,,,,,,,,,,,,,0.000000000,0.000000000,0.000000000,1.000000000,0.000000000,0.000000000,0.000000000,0.000000000,0.000000000,0.275639773,0.000000000
1746088878.745682,0.000000000,0.000000000,0.000000000,1.000000000,0.000000000,0.000000000,0.000000000,0.000000000,0.000000000,-0.178131724,0.000000000,,,,,,,,,,,,,,,,,,,,,,,,,,,,,,,,,
1746088878.745965,,,,,,,,,,,,0.000000000,0.000000000,0.000000000,1.000000000,0.000000000,0.000000000,0.000000000,0.000000000,0.000000000,-0.178131724,0.000000000,,,,,,,,,,,,,,,,,,,,,,
1746088878.746221,,,,,,,,,,,,,,,,,,,,,,,,,,,,,,,,,,0.000000000,0.000000000,0.000000000,1.000000000,0.000000000,0.000000000,0.000000000,0.000000000,0.000000000,0.178131724,0.000000000
1746088878.746692,,,,,,,,,,,,,,,,,,,,,,,0.000000000,0.000000000,0.000000000,1.000000000,0.000000000,0.000000000,0.000000000,0.000000000,0.000000000,0.178131724,0.000000000,,,,,,,,,,,
1746088878.795481,,,,,,,,,,,,0.000000000,0.000000000,0.000000000,1.000000000,0.000000000,0.000000000,0.000000000,0.000000000,0.000000000,-0.129377689,0.000000000,,,,,,,,,,,,,,,,,,,,,,
1746088878.795530,,,,,,,,,,,,,,,,,,,,,,,0.000000000,0.000000000,0.000000000,1.000000000,0.000000000,0.000000000,0.000000000,0.000000000,0.000000000,0.129377689,0.000000000,,,,,,,,,,,
1746088878.795800,0.000000000,0.000000000,0.000000000,1.000000000,0.000000000,0.000000000,0.000000000,0.000000000,0.000000000,-0.129377689,0.000000000,,,,,,,,,,,,,,,,,,,,,,,,,,,,,,,,,
1746088878.796183,,,,,,,,,,,,,,,,,,,,,,,,,,,,,,,,,,0.000000000,0.000000000,0.000000000,1.000000000,0.000000000,0.000000000,0.000000000,0.000000000,0.000000000,0.129377689,0.000000000
1746088878.844749,,,,,,,,,,,,0.000000000,0.000000000,0.000000000,1.000000000,0.000000000,0.000000000,0.000000000,0.000000000,0.000000000,-0.129377689,0.000000000,,,,,,,,,,,,,,,,,,,,,,
1746088878.844861,,,,,,,,,,,,,,,,,,,,,,,,,,,,,,,,,,0.000000000,0.000000000,0.000000000,1.000000000,0.000000000,0.000000000,0.000000000,0.000000000,0.000000000,0.129377689,0.000000000
1746088878.845073,0.000000000,0.000000000,0.000000000,1.000000000,0.000000000,0.000000000,0.000000000,0.000000000,0.000000000,-0.129377689,0.000000000,,,,,,,,,,,,,,,,,,,,,,,,,,,,,,,,,
1746088878.845698,,,,,,,,,,,,,,,,,,,,,,,0.000000000,0.000000000,0.000000000,1.000000000,0.000000000,0.000000000,0.000000000,0.000000000,0.000000000,0.129377689,0.000000000,,,,,,,,,,,
1746088878.895273,0.000000000,0.000000000,0.000000000,1.000000000,0.000000000,0.000000000,0.000000000,0.000000000,0.000000000,-0.129377689,0.000000000,,,,,,,,,,,,,,,,,,,,,,,,,,,,,,,,,
1746088878.895611,,,,,,,,,,,,,,,,,,,,,,,,,,,,,,,,,,0.000000000,0.000000000,0.000000000,1.000000000,0.000000000,0.000000000,0.000000000,0.000000000,0.000000000,0.129377689,0.000000000
1746088878.895629,,,,,,,,,,,,,,,,,,,,,,,0.000000000,0.000000000,0.000000000,1.000000000,0.000000000,0.000000000,0.000000000,0.000000000,0.000000000,0.129377689,0.000000000,,,,,,,,,,,
1746088878.896536,,,,,,,,,,,,0.000000000,0.000000000,0.000000000,1.000000000,0.000000000,0.000000000,0.000000000,0.000000000,0.000000000,-0.129377689,0.000000000,,,,,,,,,,,,,,,,,,,,,,
1746088878.944142,0.000000000,0.000000000,0.000000000,1.000000000,0.000000000,0.000000000,0.000000000,0.000000000,0.000000000,-0.129377689,0.000000000,,,,,,,,,,,,,,,,,,,,,,,,,,,,,,,,,
1746088878.944495,,,,,,,,,,,,0.000000000,0.000000000,0.000000000,1.000000000,0.000000000,0.000000000,0.000000000,0.000000000,0.000000000,-0.129377689,0.000000000,,,,,,,,,,,,,,,,,,,,,,
1746088878.944833,,,,,,,,,,,,,,,,,,,,,,,,,,,,,,,,,,0.000000000,0.000000000,0.000000000,1.000000000,0.000000000,0.000000000,0.000000000,0.000000000,0.000000000,0.129377689,0.000000000
1746088878.944852,,,,,,,,,,,,,,,,,,,,,,,0.000000000,0.000000000,0.000000000,1.000000000,0.000000000,0.000000000,0.000000000,0.000000000,0.000000000,0.129377689,0.000000000,,,,,,,,,,,
1746088878.995250,,,,,,,,,,,,,,,,,,,,,,,,,,,,,,,,,,0.000000000,0.000000000,0.000000000,1.000000000,0.000000000,0.000000000,0.000000000,0.000000000,0.000000000,0.129377689,0.000000000
1746088878.995354,,,,,,,,,,,,,,,,,,,,,,,0.000000000,0.000000000,0.000000000,1.000000000,0.000000000,0.000000000,0.000000000,0.000000000,0.000000000,0.129377689,0.000000000,,,,,,,,,,,
1746088878.995697,,,,,,,,,,,,0.000000000,0.000000000,0.000000000,1.000000000,0.000000000,0.000000000,0.000000000,0.000000000,0.000000000,-0.129377689,0.000000000,,,,,,,,,,,,,,,,,,,,,,
1746088878.995725,0.000000000,0.000000000,0.000000000,1.000000000,0.000000000,0.000000000,0.000000000,0.000000000,0.000000000,-0.129377689,0.000000000,,,,,,,,,,,,,,,,,,,,,,,,,,,,,,,,,
1746088879.045545,0.000000000,0.000000000,0.000000000,1.000000000,0.000000000,0.000000000,0.000000000,0.000000000,0.000000000,-0.129377689,0.000000000,,,,,,,,,,,,,,,,,,,,,,,,,,,,,,,,,
1746088879.045851,,,,,,,,,,,,,,,,,,,,,,,0.000000000,0.000000000,0.000000000,1.000000000,0.000000000,0.000000000,0.000000000,0.000000000,0.000000000,0.129377689,0.000000000,,,,,,,,,,,
1746088879.046045,,,,,,,,,,,,,,,,,,,,,,,,,,,,,,,,,,0.000000000,0.000000000,0.000000000,1.000000000,0.000000000,0.000000000,0.000000000,0.000000000,0.000000000,0.129377689,0.000000000
1746088879.046227,,,,,,,,,,,,0.000000000,0.000000000,0.000000000,1.000000000,0.000000000,0.000000000,0.000000000,0.000000000,0.000000000,-0.129377689,0.000000000,,,,,,,,,,,,,,,,,,,,,,
1746088879.095323,,,,,,,,,,,,0.000000000,0.000000000,0.000000000,1.000000000,0.000000000,0.000000000,0.000000000,0.000000000,0.000000000,-0.129377689,0.000000000,,,,,,,,,,,,,,,,,,,,,,
1746088879.095599,,,,,,,,,,,,,,,,,,,,,,,0.000000000,0.000000000,0.000000000,1.000000000,0.000000000,0.000000000,0.000000000,0.000000000,0.000000000,0.129377689,0.000000000,,,,,,,,,,,
1746088879.096266,0.000000000,0.000000000,0.000000000,1.000000000,0.000000000,0.000000000,0.000000000,0.000000000,0.000000000,-0.129377689,0.000000000,,,,,,,,,,,,,,,,,,,,,,,,,,,,,,,,,
1746088879.096511,,,,,,,,,,,,,,,,,,,,,,,,,,,,,,,,,,0.000000000,0.000000000,0.000000000,1.000000000,0.000000000,0.000000000,0.000000000,0.000000000,0.000000000,0.129377689,0.000000000
1746088879.145492,0.000000000,0.000000000,0.000000000,1.000000000,0.000000000,0.000000000,0.000000000,0.000000000,0.000000000,-0.129377689,0.000000000,,,,,,,,,,,,,,,,,,,,,,,,,,,,,,,,,
1746088879.145617,,,,,,,,,,,,,,,,,,,,,,,0.000000000,0.000000000,0.000000000,1.000000000,0.000000000,0.000000000,0.000000000,0.000000000,0.000000000,0.129377689,0.000000000,,,,,,,,,,,
1746088879.145823,,,,,,,,,,,,0.000000000,0.000000000,0.000000000,1.000000000,0.000000000,0.000000000,0.000000000,0.000000000,0.000000000,-0.129377689,0.000000000,,,,,,,,,,,,,,,,,,,,,,
1746088879.145874,,,,,,,,,,,,,,,,,,,,,,,,,,,,,,,,,,0.000000000,0.000000000,0.000000000,1.000000000,0.000000000,0.000000000,0.000000000,0.000000000,0.000000000,0.129377689,0.000000000
1746088879.194819,,,,,,,,,,,,,,,,,,,,,,,,,,,,,,,,,,0.000000000,0.000000000,0.000000000,1.000000000,0.000000000,0.000000000,0.000000000,0.000000000,0.000000000,0.129377689,0.000000000
1746088879.194873,,,,,,,,,,,,,,,,,,,,,,,0.000000000,0.000000000,0.000000000,1.000000000,0.000000000,0.000000000,0.000000000,0.000000000,0.000000000,0.129377689,0.000000000,,,,,,,,,,,
1746088879.195107,0.000000000,0.000000000,0.000000000,1.000000000,0.000000000,0.000000000,0.000000000,0.000000000,0.000000000,-0.129377689,0.000000000,,,,,,,,,,,,,,,,,,,,,,,,,,,,,,,,,
1746088879.195319,,,,,,,,,,,,0.000000000,0.000000000,0.000000000,1.000000000,0.000000000,0.000000000,0.000000000,0.000000000,0.000000000,-0.129377689,0.000000000,,,,,,,,,,,,,,,,,,,,,,
1746088879.245091,0.000000000,0.000000000,0.000000000,1.000000000,0.000000000,0.000000000,0.000000000,0.000000000,0.000000000,-0.129377689,0.000000000,,,,,,,,,,,,,,,,,,,,,,,,,,,,,,,,,
1746088879.245250,,,,,,,,,,,,,,,,,,,,,,,0.000000000,0.000000000,0.000000000,1.000000000,0.000000000,0.000000000,0.000000000,0.000000000,0.000000000,0.129377689,0.000000000,,,,,,,,,,,
1746088879.245447,,,,,,,,,,,,0.000000000,0.000000000,0.000000000,1.000000000,0.000000000,0.000000000,0.000000000,0.000000000,0.000000000,-0.129377689,0.000000000,,,,,,,,,,,,,,,,,,,,,,
1746088879.245944,,,,,,,,,,,,,,,,,,,,,,,,,,,,,,,,,,0.000000000,0.000000000,0.000000000,1.000000000,0.000000000,0.000000000,0.000000000,0.000000000,0.000000000,0.129377689,0.000000000
1746088879.294547,,,,,,,,,,,,,,,,,,,,,,,,,,,,,,,,,,0.000000000,0.000000000,0.000000000,1.000000000,0.000000000,0.000000000,0.000000000,0.000000000,0.000000000,0.129377689,0.000000000
1746088879.294826,,,,,,,,,,,,0.000000000,0.000000000,0.000000000,1.000000000,0.000000000,0.000000000,0.000000000,0.000000000,0.000000000,-0.129377689,0.000000000,,,,,,,,,,,,,,,,,,,,,,
1746088879.294852,0.000000000,0.000000000,0.000000000,1.000000000,0.000000000,0.000000000,0.000000000,0.000000000,0.000000000,-0.129377689,0.000000000,,,,,,,,,,,,,,,,,,,,,,,,,,,,,,,,,
1746088879.295171,,,,,,,,,,,,,,,,,,,,,,,0.000000000,0.000000000,0.000000000,1.000000000,0.000000000,0.000000000,0.000000000,0.000000000,0.000000000,0.129377689,0.000000000,,,,,,,,,,,
1746088879.345342,,,,,,,,,,,,,,,,,,,,,,,0.000000000,0.000000000,0.000000000,1.000000000,0.000000000,0.000000000,0.000000000,0.000000000,0.000000000,0.178131724,0.000000000,,,,,,,,,,,
1746088879.345723,0.000000000,0.000000000,0.000000000,1.000000000,0.000000000,0.000000000,0.000000000,0.000000000,0.000000000,-0.178131724,0.000000000,,,,,,,,,,,,,,,,,,,,,,,,,,,,,,,,,
1746088879.345786,,,,,,,,,,,,0.000000000,0.000000000,0.000000000,1.000000000,0.000000000,0.000000000,0.000000000,0.000000000,0.000000000,-0.178131724,0.000000000,,,,,,,,,,,,,,,,,,,,,,
1746088879.345799,,,,,,,,,,,,,,,,,,,,,,,,,,,,,,,,,,0.000000000,0.000000000,0.000000000,1.000000000,0.000000000,0.000000000,0.000000000,0.000000000,0.000000000,0.178131724,0.000000000
1746088879.395730,0.000000000,0.000000000,0.000000000,1.000000000,0.000000000,0.000000000,0.000000000,0.000000000,0.000000000,-0.178131724,0.000000000,,,,,,,,,,,,,,,,,,,,,,,,,,,,,,,,,
1746088879.395780,,,,,,,,,,,,,,,,,,,,,,,,,,,,,,,,,,0.000000000,0.000000000,0.000000000,1.000000000,0.000000000,0.000000000,0.000000000,0.000000000,0.000000000,0.178131724,0.000000000
1746088879.395989,,,,,,,,,,,,,,,,,,,,,,,0.000000000,0.000000000,0.000000000,1.000000000,0.000000000,0.000000000,0.000000000,0.000000000,0.000000000,0.178131724,0.000000000,,,,,,,,,,,
1746088879.396320,,,,,,,,,,,,0.000000000,0.000000000,0.000000000,1.000000000,0.000000000,0.000000000,0.000000000,0.000000000,0.000000000,-0.178131724,0.000000000,,,,,,,,,,,,,,,,,,,,,,
1746088879.446894,,,,,,,,,,,,0.000000000,0.000000000,0.000000000,1.000000000,0.000000000,0.000000000,0.000000000,0.000000000,0.000000000,-0.226885738,0.000000000,,,,,,,,,,,,,,,,,,,,,,
1746088879.447018,,,,,,,,,,,,,,,,,,,,,,,,,,,,,,,,,,0.000000000,0.000000000,0.000000000,1.000000000,0.000000000,0.000000000,0.000000000,0.000000000,0.000000000,0.226885738,0.000000000
1746088879.447070,,,,,,,,,,,,,,,,,,,,,,,0.000000000,0.000000000,0.000000000,1.000000000,0.000000000,0.000000000,0.000000000,0.000000000,0.000000000,0.226885738,0.000000000,,,,,,,,,,,
1746088879.447510,0.000000000,0.000000000,0.000000000,1.000000000,0.000000000,0.000000000,0.000000000,0.000000000,0.000000000,-0.226885738,0.000000000,,,,,,,,,,,,,,,,,,,,,,,,,,,,,,,,,
1746088879.495720,0.000000000,0.000000000,0.000000000,1.000000000,0.000000000,0.000000000,0.000000000,0.000000000,0.000000000,-0.226885738,0.000000000,,,,,,,,,,,,,,,,,,,,,,,,,,,,,,,,,
1746088879.495991,,,,,,,,,,,,0.000000000,0.000000000,0.000000000,1.000000000,0.000000000,0.000000000,0.000000000,0.000000000,0.000000000,-0.226885738,0.000000000,,,,,,,,,,,,,,,,,,,,,,
1746088879.496026,,,,,,,,,,,,,,,,,,,,,,,,,,,,,,,,,,0.000000000,0.000000000,0.000000000,1.000000000,0.000000000,0.000000000,0.000000000,0.000000000,0.000000000,0.226885738,0.000000000
1746088879.496781,,,,,,,,,,,,,,,,,,,,,,,0.000000000,0.000000000,0.000000000,1.000000000,0.000000000,0.000000000,0.000000000,0.000000000,0.000000000,0.226885738,0.000000000,,,,,,,,,,,
1746088879.545605,0.000000000,0.000000000,0.000000000,1.000000000,0.000000000,0.000000000,0.000000000,0.000000000,0.000000000,-0.226885738,0.000000000,,,,,,,,,,,,,,,,,,,,,,,,,,,,,,,,,
1746088879.545825,,,,,,,,,,,,0.000000000,0.000000000,0.000000000,1.000000000,0.000000000,0.000000000,0.000000000,0.000000000,0.000000000,-0.226885738,0.000000000,,,,,,,,,,,,,,,,,,,,,,
1746088879.545875,,,,,,,,,,,,,,,,,,,,,,,,,,,,,,,,,,0.000000000,0.000000000,0.000000000,1.000000000,0.000000000,0.000000000,0.000000000,0.000000000,0.000000000,0.226885738,0.000000000
1746088879.545998,,,,,,,,,,,,,,,,,,,,,,,0.000000000,0.000000000,0.000000000,1.000000000,0.000000000,0.000000000,0.000000000,0.000000000,0.000000000,0.226885738,0.000000000,,,,,,,,,,,
1746088879.595309,0.000000000,0.000000000,0.000000000,1.000000000,0.000000000,0.000000000,0.000000000,0.000000000,0.000000000,-0.226885738,0.000000000,,,,,,,,,,,,,,,,,,,,,,,,,,,,,,,,,
1746088879.595341,,,,,,,,,,,,,,,,,,,,,,,,,,,,,,,,,,0.000000000,0.000000000,0.000000000,1.000000000,0.000000000,0.000000000,0.000000000,0.000000000,0.000000000,0.226885738,0.000000000
1746088879.596026,,,,,,,,,,,,,,,,,,,,,,,0.000000000,0.000000000,0.000000000,1.000000000,0.000000000,0.000000000,0.000000000,0.000000000,0.000000000,0.226885738,0.000000000,,,,,,,,,,,
1746088879.596288,,,,,,,,,,,,0.000000000,0.000000000,0.000000000,1.000000000,0.000000000,0.000000000,0.000000000,0.000000000,0.000000000,-0.226885738,0.000000000,,,,,,,,,,,,,,,,,,,,,,
1746088879.645047,,,,,,,,,,,,0.000000000,0.000000000,0.000000000,1.000000000,0.000000000,0.000000000,0.000000000,0.000000000,0.000000000,-0.226885738,0.000000000,,,,,,,,,,,,,,,,,,,,,,
1746088879.645274,0.000000000,0.000000000,0.000000000,1.000000000,0.000000000,0.000000000,0.000000000,0.000000000,0.000000000,-0.226885738,0.000000000,,,,,,,,,,,,,,,,,,,,,,,,,,,,,,,,,
1746088879.645955,,,,,,,,,,,,,,,,,,,,,,,,,,,,,,,,,,0.000000000,0.000000000,0.000000000,1.000000000,0.000000000,0.000000000,0.000000000,0.000000000,0.000000000,0.226885738,0.000000000
1746088879.646165,,,,,,,,,,,,,,,,,,,,,,,0.000000000,0.000000000,0.000000000,1.000000000,0.000000000,0.000000000,0.000000000,0.000000000,0.000000000,0.226885738,0.000000000,,,,,,,,,,,
1746088879.694306,,,,,,,,,,,,0.000000000,0.000000000,0.000000000,1.000000000,0.000000000,0.000000000,0.000000000,0.000000000,0.000000000,-0.226885738,0.000000000,,,,,,,,,,,,,,,,,,,,,,
1746088879.694587,0.000000000,0.000000000,0.000000000,1.000000000,0.000000000,0.000000000,0.000000000,0.000000000,0.000000000,-0.226885738,0.000000000,,,,,,,,,,,,,,,,,,,,,,,,,,,,,,,,,
1746088879.694602,,,,,,,,,,,,,,,,,,,,,,,,,,,,,,,,,,0.000000000,0.000000000,0.000000000,1.000000000,0.000000000,0.000000000,0.000000000,0.000000000,0.000000000,0.226885738,0.000000000
1746088879.696253,,,,,,,,,,,,,,,,,,,,,,,0.000000000,0.000000000,0.000000000,1.000000000,0.000000000,0.000000000,0.000000000,0.000000000,0.000000000,0.226885738,0.000000000,,,,,,,,,,,
1746088879.745384,0.000000000,0.000000000,0.000000000,1.000000000,0.000000000,0.000000000,0.000000000,0.000000000,0.000000000,-0.226885738,0.000000000,,,,,,,,,,,,,,,,,,,,,,,,,,,,,,,,,
1746088879.745738,,,,,,,,,,,,0.000000000,0.000000000,0.000000000,1.000000000,0.000000000,0.000000000,0.000000000,0.000000000,0.000000000,-0.226885738,0.000000000,,,,,,,,,,,,,,,,,,,,,,
1746088879.745775,,,,,,,,,,,,,,,,,,,,,,,,,,,,,,,,,,0.000000000,0.000000000,0.000000000,1.000000000,0.000000000,0.000000000,0.000000000,0.000000000,0.000000000,0.226885738,0.000000000
1746088879.746088,,,,,,,,,,,,,,,,,,,,,,,0.000000000,0.000000000,0.000000000,1.000000000,0.000000000,0.000000000,0.000000000,0.000000000,0.000000000,0.226885738,0.000000000,,,,,,,,,,,
1746088879.794957,0.000000000,0.000000000,0.000000000,1.000000000,0.000000000,0.000000000,0.000000000,0.000000000,0.000000000,-0.226885738,0.000000000,,,,,,,,,,,,,,,,,,,,,,,,,,,,,,,,,
1746088879.794992,,,,,,,,,,,,,,,,,,,,,,,,,,,,,,,,,,0.000000000,0.000000000,0.000000000,1.000000000,0.000000000,0.000000000,0.000000000,0.000000000,0.000000000,0.226885738,0.000000000
1746088879.795437,,,,,,,,,,,,,,,,,,,,,,,0.000000000,0.000000000,0.000000000,1.000000000,0.000000000,0.000000000,0.000000000,0.000000000,0.000000000,0.226885738,0.000000000,,,,,,,,,,,
1746088879.796366,,,,,,,,,,,,0.000000000,0.000000000,0.000000000,1.000000000,0.000000000,0.000000000,0.000000000,0.000000000,0.000000000,-0.226885738,0.000000000,,,,,,,,,,,,,,,,,,,,,,
1746088879.844482,,,,,,,,,,,,0.000000000,0.000000000,0.000000000,1.000000000,0.000000000,0.000000000,0.000000000,0.000000000,0.000000000,-0.226885738,0.000000000,,,,,,,,,,,,,,,,,,,,,,
1746088879.844511,0.000000000,0.000000000,0.000000000,1.000000000,0.000000000,0.000000000,0.000000000,0.000000000,0.000000000,-0.226885738,0.000000000,,,,,,,,,,,,,,,,,,,,,,,,,,,,,,,,,
1746088879.844658,,,,,,,,,,,,,,,,,,,,,,,,,,,,,,,,,,0.000000000,0.000000000,0.000000000,1.000000000,0.000000000,0.000000000,0.000000000,0.000000000,0.000000000,0.226885738,0.000000000
1746088879.845009,,,,,,,,,,,,,,,,,,,,,,,0.000000000,0.000000000,0.000000000,1.000000000,0.000000000,0.000000000,0.000000000,0.000000000,0.000000000,0.226885738,0.000000000,,,,,,,,,,,
1746088879.895444,,,,,,,,,,,,0.000000000,0.000000000,0.000000000,1.000000000,0.000000000,0.000000000,0.000000000,0.000000000,0.000000000,-0.226885738,0.000000000,,,,,,,,,,,,,,,,,,,,,,
1746088879.895490,0.000000000,0.000000000,0.000000000,1.000000000,0.000000000,0.000000000,0.000000000,0.000000000,0.000000000,-0.226885738,0.000000000,,,,,,,,,,,,,,,,,,,,,,,,,,,,,,,,,
1746088879.895501,,,,,,,,,,,,,,,,,,,,,,,,,,,,,,,,,,0.000000000,0.000000000,0.000000000,1.000000000,0.000000000,0.000000000,0.000000000,0.000000000,0.000000000,0.226885738,0.000000000
1746088879.895633,,,,,,,,,,,,,,,,,,,,,,,0.000000000,0.000000000,0.000000000,1.000000000,0.000000000,0.000000000,0.000000000,0.000000000,0.000000000,0.226885738,0.000000000,,,,,,,,,,,
1746088879.944493,0.000000000,0.000000000,0.000000000,1.000000000,0.000000000,0.000000000,0.000000000,0.000000000,0.000000000,-0.178131724,0.000000000,,,,,,,,,,,,,,,,,,,,,,,,,,,,,,,,,
1746088879.944720,,,,,,,,,,,,,,,,,,,,,,,0.000000000,0.000000000,0.000000000,1.000000000,0.000000000,0.000000000,0.000000000,0.000000000,0.000000000,0.178131724,0.000000000,,,,,,,,,,,
1746088879.945597,,,,,,,,,,,,0.000000000,0.000000000,0.000000000,1.000000000,0.000000000,0.000000000,0.000000000,0.000000000,0.000000000,-0.178131724,0.000000000,,,,,,,,,,,,,,,,,,,,,,
1746088879.945675,,,,,,,,,,,,,,,,,,,,,,,,,,,,,,,,,,0.000000000,0.000000000,0.000000000,1.000000000,0.000000000,0.000000000,0.000000000,0.000000000,0.000000000,0.178131724,0.000000000
1746088879.995028,0.000000000,0.000000000,0.000000000,1.000000000,0.000000000,0.000000000,0.000000000,0.000000000,0.000000000,-0.178131724,0.000000000,,,,,,,,,,,,,,,,,,,,,,,,,,,,,,,,,
1746088879.995119,,,,,,,,,,,,,,,,,,,,,,,,,,,,,,,,,,0.000000000,0.000000000,0.000000000,1.000000000,0.000000000,0.000000000,0.000000000,0.000000000,0.000000000,0.178131724,0.000000000
1746088879.995166,,,,,,,,,,,,,,,,,,,,,,,0.000000000,0.000000000,0.000000000,1.000000000,0.000000000,0.000000000,0.000000000,0.000000000,0.000000000,0.178131724,0.000000000,,,,,,,,,,,
1746088879.995306,,,,,,,,,,,,0.000000000,0.000000000,0.000000000,1.000000000,0.000000000,0.000000000,0.000000000,0.000000000,0.000000000,-0.178131724,0.000000000,,,,,,,,,,,,,,,,,,,,,,
1746088880.045197,0.000000000,0.000000000,0.000000000,1.000000000,0.000000000,0.000000000,0.000000000,0.000000000,0.000000000,-0.129377689,0.000000000,,,,,,,,,,,,,,,,,,,,,,,,,,,,,,,,,
1746088880.045244,,,,,,,,,,,,,,,,,,,,,,,,,,,,,,,,,,0.000000000,0.000000000,0.000000000,1.000000000,0.000000000,0.000000000,0.000000000,0.000000000,0.000000000,0.129377689,0.000000000
1746088880.045476,,,,,,,,,,,,0.000000000,0.000000000,0.000000000,1.000000000,0.000000000,0.000000000,0.000000000,0.000000000,0.000000000,-0.129377689,0.000000000,,,,,,,,,,,,,,,,,,,,,,
1746088880.045489,,,,,,,,,,,,,,,,,,,,,,,0.000000000,0.000000000,0.000000000,1.000000000,0.000000000,0.000000000,0.000000000,0.000000000,0.000000000,0.129377689,0.000000000,,,,,,,,,,,
1746088880.095231,,,,,,,,,,,,0.000000000,0.000000000,0.000000000,1.000000000,0.000000000,0.000000000,0.000000000,0.000000000,0.000000000,-0.129377689,0.000000000,,,,,,,,,,,,,,,,,,,,,,
1746088880.095260,0.000000000,0.000000000,0.000000000,1.000000000,0.000000000,0.000000000,0.000000000,0.000000000,0.000000000,-0.129377689,0.000000000,,,,,,,,,,,,,,,,,,,,,,,,,,,,,,,,,
1746088880.095266,,,,,,,,,,,,,,,,,,,,,,,,,,,,,,,,,,0.000000000,0.000000000,0.000000000,1.000000000,0.000000000,0.000000000,0.000000000,0.000000000,0.000000000,0.129377689,0.000000000
1746088880.095791,,,,,,,,,,,,,,,,,,,,,,,0.000000000,0.000000000,0.000000000,1.000000000,0.000000000,0.000000000,0.000000000,0.000000000,0.000000000,0.129377689,0.000000000,,,,,,,,,,,
1746088880.144702,,,,,,,,,,,,0.000000000,0.000000000,0.000000000,1.000000000,0.000000000,0.000000000,0.000000000,0.000000000,0.000000000,-0.129377689,0.000000000,,,,,,,,,,,,,,,,,,,,,,
1746088880.144748,,,,,,,,,,,,,,,,,,,,,,,,,,,,,,,,,,0.000000000,0.000000000,0.000000000,1.000000000,0.000000000,0.000000000,0.000000000,0.000000000,0.000000000,0.129377689,0.000000000
1746088880.145168,0.000000000,0.000000000,0.000000000,1.000000000,0.000000000,0.000000000,0.000000000,0.000000000,0.000000000,-0.129377689,0.000000000,,,,,,,,,,,,,,,,,,,,,,,,,,,,,,,,,
1746088880.145184,,,,,,,,,,,,,,,,,,,,,,,0.000000000,0.000000000,0.000000000,1.000000000,0.000000000,0.000000000,0.000000000,0.000000000,0.000000000,0.129377689,0.000000000,,,,,,,,,,,
1746088880.195145,,,,,,,,,,,,,,,,,,,,,,,,,,,,,,,,,,0.000000000,0.000000000,0.000000000,1.000000000,0.000000000,0.000000000,0.000000000,0.000000000,0.000000000,0.129377689,0.000000000
1746088880.195191,,,,,,,,,,,,,,,,,,,,,,,0.000000000,0.000000000,0.000000000,1.000000000,0.000000000,0.000000000,0.000000000,0.000000000,0.000000000,0.129377689,0.000000000,,,,,,,,,,,
1746088880.195331,,,,,,,,,,,,0.000000000,0.000000000,0.000000000,1.000000000,0.000000000,0.000000000,0.000000000,0.000000000,0.000000000,-0.129377689,0.000000000,,,,,,,,,,,,,,,,,,,,,,
1746088880.195353,0.000000000,0.000000000,0.000000000,1.000000000,0.000000000,0.000000000,0.000000000,0.000000000,0.000000000,-0.129377689,0.000000000,,,,,,,,,,,,,,,,,,,,,,,,,,,,,,,,,
1746088880.245606,,,,,,,,,,,,0.000000000,0.000000000,0.000000000,1.000000000,0.000000000,0.000000000,0.000000000,0.000000000,0.000000000,-0.178131724,0.000000000,,,,,,,,,,,,,,,,,,,,,,
1746088880.245648,,,,,,,,,,,,,,,,,,,,,,,,,,,,,,,,,,0.000000000,0.000000000,0.000000000,1.000000000,0.000000000,0.000000000,0.000000000,0.000000000,0.000000000,0.178131724,0.000000000
1746088880.246154,0.000000000,0.000000000,0.000000000,1.000000000,0.000000000,0.000000000,0.000000000,0.000000000,0.000000000,-0.178131724,0.000000000,,,,,,,,,,,,,,,,,,,,,,,,,,,,,,,,,
1746088880.246231,,,,,,,,,,,,,,,,,,,,,,,0.000000000,0.000000000,0.000000000,1.000000000,0.000000000,0.000000000,0.000000000,0.000000000,0.000000000,0.178131724,0.000000000,,,,,,,,,,,
1746088880.295150,0.000000000,0.000000000,0.000000000,1.000000000,0.000000000,0.000000000,0.000000000,0.000000000,0.000000000,-0.226885738,0.000000000,,,,,,,,,,,,,,,,,,,,,,,,,,,,,,,,,
1746088880.296134,,,,,,,,,,,,0.000000000,0.000000000,0.000000000,1.000000000,0.000000000,0.000000000,0.000000000,0.000000000,0.000000000,-0.226885738,0.000000000,,,,,,,,,,,,,,,,,,,,,,
1746088880.296165,,,,,,,,,,,,,,,,,,,,,,,,,,,,,,,,,,0.000000000,0.000000000,0.000000000,1.000000000,0.000000000,0.000000000,0.000000000,0.000000000,0.000000000,0.226885738,0.000000000
1746088880.296216,,,,,,,,,,,,,,,,,,,,,,,0.000000000,0.000000000,0.000000000,1.000000000,0.000000000,0.000000000,0.000000000,0.000000000,0.000000000,0.226885738,0.000000000,,,,,,,,,,,
1746088880.345028,,,,,,,,,,,,0.000000000,0.000000000,0.000000000,1.000000000,0.000000000,0.000000000,0.000000000,0.000000000,0.000000000,-0.226885738,0.000000000,,,,,,,,,,,,,,,,,,,,,,
1746088880.345069,0.000000000,0.000000000,0.000000000,1.000000000,0.000000000,0.000000000,0.000000000,0.000000000,0.000000000,-0.226885738,0.000000000,,,,,,,,,,,,,,,,,,,,,,,,,,,,,,,,,
1746088880.345855,,,,,,,,,,,,,,,,,,,,,,,,,,,,,,,,,,0.000000000,0.000000000,0.000000000,1.000000000,0.000000000,0.000000000,0.000000000,0.000000000,0.000000000,0.226885738,0.000000000
1746088880.345923,,,,,,,,,,,,,,,,,,,,,,,0.000000000,0.000000000,0.000000000,1.000000000,0.000000000,0.000000000,0.000000000,0.000000000,0.000000000,0.226885738,0.000000000,,,,,,,,,,,
1746088880.394827,0.000000000,0.000000000,0.000000000,1.000000000,0.000000000,0.000000000,0.000000000,0.000000000,0.000000000,-0.373147822,0.000000000,,,,,,,,,,,,,,,,,,,,,,,,,,,,,,,,,
1746088880.395280,,,,,,,,,,,,,,,,,,,,,,,0.000000000,0.000000000,0.000000000,1.000000000,0.000000000,0.000000000,0.000000000,0.000000000,0.000000000,0.373147822,0.000000000,,,,,,,,,,,
1746088880.395328,,,,,,,,,,,,0.000000000,0.000000000,0.000000000,1.000000000,0.000000000,0.000000000,0.000000000,0.000000000,0.000000000,-0.373147822,0.000000000,,,,,,,,,,,,,,,,,,,,,,
1746088880.395710,,,,,,,,,,,,,,,,,,,,,,,,,,,,,,,,,,0.000000000,0.000000000,0.000000000,1.000000000,0.000000000,0.000000000,0.000000000,0.000000000,0.000000000,0.373147822,0.000000000
1746088880.445611,,,,,,,,,,,,,,,,,,,,,,,0.000000000,0.000000000,0.000000000,1.000000000,0.000000000,0.000000000,0.000000000,0.000000000,0.000000000,0.470655894,0.000000000,,,,,,,,,,,
1746088880.445682,,,,,,,,,,,,0.000000000,0.000000000,0.000000000,1.000000000,0.000000000,0.000000000,0.000000000,0.000000000,0.000000000,-0.470655894,0.000000000,,,,,,,,,,,,,,,,,,,,,,
1746088880.445690,0.000000000,0.000000000,0.000000000,1.000000000,0.000000000,0.000000000,0.000000000,0.000000000,0.000000000,-0.470655894,0.000000000,,,,,,,,,,,,,,,,,,,,,,,,,,,,,,,,,
1746088880.445697,,,,,,,,,,,,,,,,,,,,,,,,,,,,,,,,,,0.000000000,0.000000000,0.000000000,1.000000000,0.000000000,0.000000000,0.000000000,0.000000000,0.000000000,0.470655894,0.000000000
1746088880.496135,,,,,,,,,,,,0.000000000,0.000000000,0.000000000,1.000000000,0.000000000,0.000000000,0.000000000,0.000000000,0.000000000,-0.470655894,0.000000000,,,,,,,,,,,,,,,,,,,,,,
1746088880.496240,0.000000000,0.000000000,0.000000000,1.000000000,0.000000000,0.000000000,0.000000000,0.000000000,0.000000000,-0.470655894,0.000000000,,,,,,,,,,,,,,,,,,,,,,,,,,,,,,,,,
1746088880.496293,,,,,,,,,,,,,,,,,,,,,,,0.000000000,0.000000000,0.000000000,1.000000000,0.000000000,0.000000000,0.000000000,0.000000000,0.000000000,0.470655894,0.000000000,,,,,,,,,,,
1746088880.496885,,,,,,,,,,,,,,,,,,,,,,,,,,,,,,,,,,0.000000000,0.000000000,0.000000000,1.000000000,0.000000000,0.000000000,0.000000000,0.000000000,0.000000000,0.470655894,0.000000000
1746088880.545280,0.000000000,0.000000000,0.000000000,1.000000000,0.000000000,0.000000000,0.000000000,0.000000000,0.000000000,-0.470655894,0.000000000,,,,,,,,,,,,,,,,,,,,,,,,,,,,,,,,,
1746088880.545788,,,,,,,,,,,,,,,,,,,,,,,,,,,,,,,,,,0.000000000,0.000000000,0.000000000,1.000000000,0.000000000,0.000000000,0.000000000,0.000000000,0.000000000,0.470655894,0.000000000
1746088880.546602,,,,,,,,,,,,0.000000000,0.000000000,0.000000000,1.000000000,0.000000000,0.000000000,0.000000000,0.000000000,0.000000000,-0.470655894,0.000000000,,,,,,,,,,,,,,,,,,,,,,
1746088880.546638,,,,,,,,,,,,,,,,,,,,,,,0.000000000,0.000000000,0.000000000,1.000000000,0.000000000,0.000000000,0.000000000,0.000000000,0.000000000,0.470655894,0.000000000,,,,,,,,,,,
1746088880.595002,,,,,,,,,,,,0.000000000,0.000000000,0.000000000,1.000000000,0.000000000,0.000000000,0.000000000,0.000000000,0.000000000,-0.470655894,0.000000000,,,,,,,,,,,,,,,,,,,,,,
1746088880.595030,0.000000000,0.000000000,0.000000000,1.000000000,0.000000000,0.000000000,0.000000000,0.000000000,0.000000000,-0.470655894,0.000000000,,,,,,,,,,,,,,,,,,,,,,,,,,,,,,,,,
1746088880.595063,,,,,,,,,,,,,,,,,,,,,,,0.000000000,0.000000000,0.000000000,1.000000000,0.000000000,0.000000000,0.000000000,0.000000000,0.000000000,0.470655894,0.000000000,,,,,,,,,,,
1746088880.595134,,,,,,,,,,,,,,,,,,,,,,,,,,,,,,,,,,0.000000000,0.000000000,0.000000000,1.000000000,0.000000000,0.000000000,0.000000000,0.000000000,0.000000000,0.470655894,0.000000000
1746088880.646835,,,,,,,,,,,,0.000000000,0.000000000,0.000000000,1.000000000,0.000000000,0.000000000,0.000000000,0.000000000,0.000000000,-0.470655894,0.000000000,,,,,,,,,,,,,,,,,,,,,,
1746088880.646889,0.000000000,0.000000000,0.000000000,1.000000000,0.000000000,0.000000000,0.000000000,0.000000000,0.000000000,-0.470655894,0.000000000,,,,,,,,,,,,,,,,,,,,,,,,,,,,,,,,,
1746088880.646904,,,,,,,,,,,,,,,,,,,,,,,,,,,,,,,,,,0.000000000,0.000000000,0.000000000,1.000000000,0.000000000,0.000000000,0.000000000,0.000000000,0.000000000,0.470655894,0.000000000
1746088880.646963,,,,,,,,,,,,,,,,,,,,,,,0.000000000,0.000000000,0.000000000,1.000000000,0.000000000,0.000000000,0.000000000,0.000000000,0.000000000,0.470655894,0.000000000,,,,,,,,,,,
1746088880.695041,,,,,,,,,,,,,,,,,,,,,,,,,,,,,,,,,,0.000000000,0.000000000,0.000000000,1.000000000,0.000000000,0.000000000,0.000000000,0.000000000,0.000000000,0.470655894,0.000000000
1746088880.695292,,,,,,,,,,,,,,,,,,,,,,,0.000000000,0.000000000,0.000000000,1.000000000,0.000000000,0.000000000,0.000000000,0.000000000,0.000000000,0.470655894,0.000000000,,,,,,,,,,,
1746088880.695520,,,,,,,,,,,,0.000000000,0.000000000,0.000000000,1.000000000,0.000000000,0.000000000,0.000000000,0.000000000,0.000000000,-0.470655894,0.000000000,,,,,,,,,,,,,,,,,,,,,,
1746088880.695650,0.000000000,0.000000000,0.000000000,1.000000000,0.000000000,0.000000000,0.000000000,0.000000000,0.000000000,-0.470655894,0.000000000,,,,,,,,,,,,,,,,,,,,,,,,,,,,,,,,,
1746088880.745693,0.000000000,0.000000000,0.000000000,1.000000000,0.000000000,0.000000000,0.000000000,0.000000000,0.000000000,-0.470655894,0.000000000,,,,,,,,,,,,,,,,,,,,,,,,,,,,,,,,,
1746088880.746302,,,,,,,,,,,,,,,,,,,,,,,,,,,,,,,,,,0.000000000,0.000000000,0.000000000,1.000000000,0.000000000,0.000000000,0.000000000,0.000000000,0.000000000,0.470655894,0.000000000
1746088880.746393,,,,,,,,,,,,,,,,,,,,,,,0.000000000,0.000000000,0.000000000,1.000000000,0.000000000,0.000000000,0.000000000,0.000000000,0.000000000,0.470655894,0.000000000,,,,,,,,,,,
1746088880.746568,,,,,,,,,,,,0.000000000,0.000000000,0.000000000,1.000000000,0.000000000,0.000000000,0.000000000,0.000000000,0.000000000,-0.470655894,0.000000000,,,,,,,,,,,,,,,,,,,,,,
1746088880.796330,,,,,,,,,,,,0.000000000,0.000000000,0.000000000,1.000000000,0.000000000,0.000000000,0.000000000,0.000000000,0.000000000,-0.470655894,0.000000000,,,,,,,,,,,,,,,,,,,,,,
1746088880.796470,0.000000000,0.000000000,0.000000000,1.000000000,0.000000000,0.000000000,0.000000000,0.000000000,0.000000000,-0.470655894,0.000000000,,,,,,,,,,,,,,,,,,,,,,,,,,,,,,,,,
1746088880.796520,,,,,,,,,,,,,,,,,,,,,,,,,,,,,,,,,,0.000000000,0.000000000,0.000000000,1.000000000,0.000000000,0.000000000,0.000000000,0.000000000,0.000000000,0.470655894,0.000000000
1746088880.796561,,,,,,,,,,,,,,,,,,,,,,,0.000000000,0.000000000,0.000000000,1.000000000,0.000000000,0.000000000,0.000000000,0.000000000,0.000000000,0.470655894,0.000000000,,,,,,,,,,,
1746088880.845627,0.000000000,0.000000000,0.000000000,1.000000000,0.000000000,0.000000000,0.000000000,0.000000000,0.000000000,-0.470655894,0.000000000,,,,,,,,,,,,,,,,,,,,,,,,,,,,,,,,,
1746088880.845726,,,,,,,,,,,,0.000000000,0.000000000,0.000000000,1.000000000,0.000000000,0.000000000,0.000000000,0.000000000,0.000000000,-0.470655894,0.000000000,,,,,,,,,,,,,,,,,,,,,,
1746088880.846225,,,,,,,,,,,,,,,,,,,,,,,0.000000000,0.000000000,0.000000000,1.000000000,0.000000000,0.000000000,0.000000000,0.000000000,0.000000000,0.470655894,0.000000000,,,,,,,,,,,
1746088880.846978,,,,,,,,,,,,,,,,,,,,,,,,,,,,,,,,,,0.000000000,0.000000000,0.000000000,1.000000000,0.000000000,0.000000000,0.000000000,0.000000000,0.000000000,0.470655894,0.000000000
1746088880.895505,,,,,,,,,,,,0.000000000,0.000000000,0.000000000,1.000000000,0.000000000,0.000000000,0.000000000,0.000000000,0.000000000,-0.470655894,0.000000000,,,,,,,,,,,,,,,,,,,,,,
